[{"lat":12.1834835,"lng":76.8212156,"name":"Coconut Farm, Bilugali, Karnataka, IN - ಐಸಿರಿ ತೆಂಗಿನ ತೋಟ (12.183, 76.821)","locId":"L16785050","dates":["2021-11-01","2021-11-25","2021-11-26","2021-12-09","2022-02-15","2022-02-18","2022-04-13","2022-05-07","2022-05-15","2022-06-02","2022-06-30","2022-08-06","2022-08-07","2022-12-18","2022-12-20","2022-12-21","2022-12-25","2023-02-01","2023-02-03","2023-02-04","2023-02-11","2023-02-12","2023-03-25","2023-06-25","2023-06-27","2023-08-04","2023-08-06","2023-08-07","2023-09-22","2023-09-23","2023-09-24","2023-09-25","2023-12-03","2024-01-04","2024-03-16","2024-03-17","2024-06-13","2024-06-16","2024-08-10","2024-11-07","2024-11-08","2024-11-09","2025-04-12","2025-04-13","2025-04-14","2025-06-21","2025-07-03","2025-07-04","2026-02-06","2026-02-07","2026-02-08","2026-02-09","2026-02-27","2026-04-20","2026-05-22","2026-05-24","2026-06-07"]},{"lat":17.3779993,"lng":78.3035088,"name":"Osman Sagar Lake","locId":"L3169524","dates":["2021-07-03","2021-09-15","2021-09-16","2021-09-18","2021-11-08","2021-11-09","2021-11-10","2021-11-11","2021-11-13","2021-11-17","2021-11-18","2021-11-19","2021-11-22","2021-11-30","2022-04-24","2022-04-30","2022-07-30","2022-08-13","2022-10-08","2022-10-21","2022-10-23","2022-10-24","2022-10-25","2022-10-26","2022-10-28","2022-10-29","2022-11-01","2022-11-03","2022-11-05","2022-11-08","2022-11-11","2022-11-30","2023-04-09","2023-08-20","2024-01-27","2024-02-18","2024-05-14","2025-05-01"]},{"lat":12.3445726,"lng":76.6332577,"name":"Brindavan Extension - Stage 1, 8th Cross, Mysuru","locId":"L16263036","dates":["2021-09-21","2022-05-15","2022-06-05","2022-06-30","2022-12-21","2023-02-01","2023-02-02","2023-02-04","2023-02-12","2023-03-26","2023-03-28","2023-03-29","2023-06-25","2023-09-23","2023-09-25","2023-12-02","2024-01-05","2024-01-06","2024-03-15","2024-03-16","2024-03-17","2024-06-14","2024-06-15","2024-06-16","2024-08-11","2024-11-08","2025-04-13","2025-06-20","2025-06-21","2025-07-04","2026-02-07","2026-02-08","2026-02-09","2026-02-26","2026-05-25","2026-06-06"]},{"lat":17.4822835,"lng":77.9203298,"name":"Ramnathgudepalle Grassland","locId":"L17750578","dates":["2022-07-25","2022-11-06","2022-11-19","2022-11-25","2022-11-27","2022-12-04","2023-01-01","2023-04-09","2023-04-16","2023-04-30","2023-07-01","2023-08-19","2023-09-30","2023-10-02","2023-10-15","2023-10-22","2023-11-23","2024-05-17","2024-07-21","2024-09-22","2024-10-06","2024-12-14","2024-12-21","2025-04-25","2025-08-24","2026-01-15","2026-02-16"]},{"lat":17.3906292,"lng":78.3393623,"name":"Rajapushpa Atria, Golden Mile Road, Kokapet, Telangana, IN","locId":"L17832657","dates":["2022-02-20","2022-02-22","2022-10-30","2022-11-14","2022-11-15","2022-11-22","2022-12-06","2023-02-19","2023-04-11","2023-05-23","2023-06-07","2023-10-09","2024-01-10","2024-02-16","2024-02-18","2025-02-01","2025-02-15","2025-02-16","2025-02-17","2025-03-16","2025-05-01","2025-06-24","2025-07-11","2026-04-15"]},{"lat":12.339711,"lng":76.6301472,"name":"Mysore City Bird Atlas 8C, PK Sanitorium, KRS Road","locId":"L2911883","dates":["2021-09-01","2021-09-08","2021-09-28","2021-10-01","2021-10-14","2021-10-29","2021-11-24","2021-11-25","2021-11-26","2021-12-07","2021-12-08","2021-12-09","2022-02-13","2022-02-14","2022-02-15","2022-02-17","2022-02-19","2022-02-24","2022-03-03","2022-04-13","2022-04-15","2022-05-16","2022-12-18","2022-12-20"]},{"lat":17.442085,"lng":78.2199526,"name":"Mokila","locId":"L17433563","dates":["2022-07-15","2022-07-16","2022-07-23","2022-07-24","2022-07-25","2022-07-30","2022-08-03","2022-08-12","2022-10-28","2022-12-14","2022-12-29","2023-03-25","2023-04-07","2023-07-01","2023-07-22","2023-09-10","2023-09-19","2023-09-29","2024-01-27","2024-05-19","2025-03-01","2025-05-02","2025-06-28"]},{"lat":12.0892199,"lng":76.7103624,"name":"Narasambudhi, Nanjangud (ನರಸಾಂಬುಧಿ)","locId":"L2477135","dates":["2021-08-16","2021-08-18","2021-08-19","2021-08-29","2021-09-04","2021-09-24","2021-09-25","2021-09-26","2021-10-03","2021-10-08","2021-10-16","2021-10-30","2021-10-31","2021-11-27","2022-02-14","2022-05-08","2022-06-04","2022-08-06","2023-08-06","2023-12-03"]},{"lat":17.6548137,"lng":78.0729353,"name":"Manjeera Wildlife Sanctuary","locId":"L3286789","dates":["2021-11-14","2021-12-26","2022-01-14","2022-01-19","2022-01-23","2022-02-05","2022-02-09","2022-03-12","2022-03-19","2022-05-27","2022-06-11","2022-11-24","2022-12-31","2023-02-18","2023-06-17","2023-08-20","2023-09-09","2023-09-10"]},{"lat":17.708667,"lng":78.339006,"name":"Narsapur -- Medalamma Temple","locId":"L13648905","dates":["2022-01-16","2022-01-22","2022-02-06","2022-03-20","2022-05-29","2022-10-22","2023-03-18","2023-08-11","2023-09-16","2023-10-21","2024-02-17","2025-03-08","2025-10-11","2026-01-01","2026-02-22"]},{"lat":17.3145058,"lng":77.8657776,"name":"Ananthagiri Hills, Vikarabad","locId":"L2676577","dates":["2022-03-13","2022-12-11","2023-01-20","2023-01-28","2023-04-08","2023-09-17","2023-11-19","2023-12-17","2024-02-10","2024-03-08","2024-03-30","2024-12-01","2024-12-07","2025-10-18","2026-01-31"]},{"lat":17.3842018,"lng":78.3502366,"name":"Musi River Bridge near Narsingi ORR Exit","locId":"L27323436","dates":["2022-12-01","2022-12-27","2022-12-30","2023-10-01","2023-10-15","2023-10-23","2024-02-18","2025-02-14","2025-10-04","2025-11-16","2026-01-10"]},{"lat":11.9448988,"lng":76.2369991,"name":"Nagarahole National Park--Kabini ನಾಗರಹೊಳೆ ರಾಷ್ಟ್ರೀಯ ಉದ್ಯಾನವನ--ಕಬಿನಿ","locId":"L4187119","dates":["2021-10-22","2021-10-23","2021-10-24","2021-11-02","2021-11-03","2024-06-06","2024-06-07","2024-06-08","2025-05-23","2025-05-24","2025-05-25"]},{"lat":32.8495772,"lng":-117.2697229,"name":"Goldfish Point & Coast Walk Trail","locId":"L3503035","dates":["2022-09-11","2022-09-17","2023-03-05","2023-05-12","2023-11-02","2024-04-28","2024-05-02","2024-05-04","2024-10-20","2025-05-17","2025-12-06"]},{"lat":12.1711678,"lng":76.7539644,"name":"Hadinaru Kere ಹದಿನಾರು ಕೆರೆ","locId":"L2575310","dates":["2021-08-05","2021-08-17","2021-09-04","2021-09-23","2021-09-24","2021-10-09","2022-02-13","2022-03-05","2022-08-05","2023-02-03"]},{"lat":12.1923327,"lng":76.8096053,"name":"Bilugali Kabini Bridge - North Side","locId":"L16566332","dates":["2021-08-13","2021-10-07","2021-11-26","2022-07-01","2023-02-03","2023-06-25","2024-01-05","2024-06-13","2024-11-09"]},{"lat":12.2197787,"lng":76.7733608,"name":"Nandigunda Seasonal Lake and Scrub patch","locId":"L16460742","dates":["2021-09-25","2021-09-30","2021-10-01","2021-10-05","2021-12-10","2022-02-18","2022-05-07","2022-07-01","2022-08-05"]},{"lat":33.0112764,"lng":-117.2520982,"name":"San Elijo Lagoon--east","locId":"L577740","dates":["2023-05-09","2023-05-13","2024-04-27","2024-04-28","2024-05-04","2024-10-14","2025-05-11","2025-12-07"]},{"lat":17.7270889,"lng":78.2923211,"name":"Narasapur Lake","locId":"L16927009","dates":["2021-11-20","2022-05-29","2023-09-16","2023-10-01","2023-10-21","2025-05-03","2026-02-22"]},{"lat":17.7115377,"lng":78.3172417,"name":"Narsapur Reserve Forest","locId":"L3202452","dates":["2021-03-29","2021-07-18","2021-12-12","2022-04-17","2022-04-23","2023-01-22","2025-05-03"]},{"lat":17.521068,"lng":78.3290153,"name":"Ameenpur Lake, Hyderabad","locId":"L2666940","dates":["2021-07-05","2021-09-17","2022-05-03","2022-05-28","2022-11-18","2022-12-09","2023-04-15"]},{"lat":11.9391339,"lng":76.2703809,"name":"Kabini River lodge","locId":"L5166005","dates":["2021-10-22","2021-10-23","2021-11-02","2021-11-03","2024-06-06","2025-05-23","2025-05-25"]},{"lat":16.3690507,"lng":78.7290214,"name":"Uma Maheswaram","locId":"L3773416","dates":["2021-12-27","2022-01-02","2022-01-06","2022-01-17","2022-08-14","2023-08-27","2024-05-26"]},{"lat":17.400268,"lng":78.325453,"name":"Kokapet Lake","locId":"L5123362","dates":["2021-09-14","2021-11-07","2023-04-07","2024-09-22","2025-04-27","2026-01-10"]},{"lat":27.5783621,"lng":95.3615749,"name":"Maguribeel--Maguri Eco Camp","locId":"L11007656","dates":["2022-03-27","2023-01-08","2023-04-17","2023-04-23","2026-01-23","2026-01-24"]},{"lat":17.2672578,"lng":77.9303199,"name":"Damagundam -- Reserve Forest","locId":"L12695723","dates":["2022-06-12","2022-12-03","2023-06-03","2023-12-10","2025-03-22","2025-03-29"]},{"lat":12.2412492,"lng":76.7668987,"name":"Linganakatte, Pillahalli (ಲಿಂಗನ ಕಟ್ಟೆ)","locId":"L16496686","dates":["2021-09-29","2021-10-09","2021-12-11","2025-07-05","2026-04-22"]},{"lat":17.63669,"lng":78.061673,"name":"Manjeera -- Cheruvu Katta Road","locId":"L15662182","dates":["2023-10-14","2024-01-26","2024-06-29","2025-01-04","2026-01-18"]},{"lat":17.3434845,"lng":77.9662153,"name":"Parameshwara Hill Temple, Vikarabad","locId":"L19692640","dates":["2022-06-18","2023-04-08","2023-07-02","2023-08-26","2023-09-17"]},{"lat":27.2962456,"lng":95.4874729,"name":"Dihing Patkai NP--Soraipung (Core area)","locId":"L16946439","dates":["2022-03-25","2022-03-26","2026-01-24","2026-01-25","2026-01-27"]},{"lat":17.4597047,"lng":78.2669542,"name":"Tellapur - Osmannagar Areas","locId":"L20571108","dates":["2022-08-15","2022-11-11","2022-11-13","2022-12-30","2025-08-30"]},{"lat":29.4788623,"lng":79.1486098,"name":"Taj Corbett","locId":"L8809959","dates":["2023-05-25","2023-05-26","2023-05-27","2023-05-28","2023-05-29"]},{"lat":27.5749773,"lng":95.3761956,"name":"Maguri Beel (Maguri Wetland)","locId":"L2525751","dates":["2022-03-31","2022-04-01","2023-01-08","2023-01-13"]},{"lat":27.5760898,"lng":95.370438,"name":"Maguribeel--Grassland","locId":"L18325715","dates":["2023-01-07","2023-01-08","2023-01-13","2026-01-24"]},{"lat":-1.4639138,"lng":35.2620202,"name":"Osero Sopia River Camp","locId":"L20900063","dates":["2025-09-05","2025-09-08","2025-09-09","2025-09-10"]},{"lat":17.3290908,"lng":78.3631611,"name":"Himayat Sagar Lake","locId":"L3049127","dates":["2021-12-01","2021-12-02","2021-12-03","2022-10-02"]},{"lat":17.5464984,"lng":77.4763155,"name":"Chincholi Wildlife Sanctuary--Gottamgotta ಚಿಂಚೋಳಿ ವನ್ಯಜೀವಿಧಾಮ--ಗೊಟ್ಟಂಗೊಟ್ಟ","locId":"L4894763","dates":["2021-12-25","2022-07-17","2023-01-26","2023-08-13"]},{"lat":17.3956565,"lng":78.3472085,"name":"Narasingi Nalla Cheruvu Lake","locId":"L21582024","dates":["2022-11-20","2022-11-21","2022-11-26","2026-01-10"]},{"lat":17.3392031,"lng":78.340964,"name":"Sreenidhi International School, Azeeznagar","locId":"L21940647","dates":["2022-12-28","2023-02-05","2023-10-15","2024-07-15"]},{"lat":17.3770496,"lng":78.5420541,"name":"New Maruthi Nagar, Road Number 12D & C (Large Mango and Neem Tree)","locId":"L18184662","dates":["2022-03-20","2024-03-02","2025-03-30","2025-03-31"]},{"lat":28.1979691,"lng":95.8086294,"name":"Frogmouth Camp","locId":"L18570811","dates":["2023-04-18","2023-04-20","2023-04-22","2026-01-26"]},{"lat":17.6401694,"lng":78.0769162,"name":"Manjeera -- Tallapally Lake","locId":"L12550599","dates":["2025-04-26","2026-01-18","2026-05-16"]},{"lat":17.4226723,"lng":78.4262601,"name":"Kasu Brahmananda Reddy NP, Hyderabad","locId":"L2638829","dates":["2021-12-01","2022-01-01","2023-11-13"]},{"lat":11.6568586,"lng":92.6578674,"name":"Ograbraj Wetlands","locId":"L11135695","dates":["2021-12-18","2021-12-19","2026-03-19"]},{"lat":27.5666545,"lng":95.3753538,"name":"Maguribeel--Embankment","locId":"L22179060","dates":["2026-01-22","2026-01-23","2026-01-24"]},{"lat":17.4761611,"lng":77.9376341,"name":"Yenkathala Grassland","locId":"L28109343","dates":["2024-01-01","2024-01-27","2024-02-03"]},{"lat":27.1619059,"lng":77.5227929,"name":"Bharatpur--Keoladeo Ghana NP","locId":"L946706","dates":["2024-02-22","2024-02-23","2024-02-24"]},{"lat":33.0084139,"lng":-117.271476,"name":"San Elijo Lagoon--west","locId":"L761141","dates":["2024-04-27","2024-04-29","2024-10-14"]},{"lat":37.459167,"lng":-122.10445,"name":"Palo Alto Baylands","locId":"L152122","dates":["2023-07-09","2025-07-13","2026-04-25"]},{"lat":37.457384,"lng":-122.1089602,"name":"Palo Alto Baylands--Duck Pond","locId":"L776939","dates":["2023-07-09","2025-07-13","2026-04-25"]},{"lat":27.6177476,"lng":95.401381,"name":"Dibru-Saikhowa NP (Outskirts)--Baghjan Grassland","locId":"L17023205","dates":["2023-01-09","2026-01-22","2026-01-23"]},{"lat":18.2765671,"lng":74.0611768,"name":"Shelar Farm Birding Point","locId":"L26811291","dates":["2024-09-01","2024-09-02","2025-07-31"]},{"lat":27.4972833,"lng":96.3914694,"name":"Namdapha NP & Surroundings--Deban","locId":"L4696975","dates":["2023-01-09","2023-01-10","2023-01-11"]},{"lat":27.3324316,"lng":95.4859745,"name":"Dihing Patkai NP--Soraipung (Buffer area)","locId":"L3107276","dates":["2026-01-24","2026-01-25","2026-01-26"]},{"lat":27.5266926,"lng":95.3675079,"name":"Bherjan WLS & Surroundings","locId":"L4314217","dates":["2023-01-09","2023-01-13","2026-01-23"]},{"lat":26.8488419,"lng":88.3599852,"name":"Mahananda WLS--Nurbong Tea Garden","locId":"L20338722","dates":["2023-07-31","2023-08-01","2023-12-30"]},{"lat":26.8316068,"lng":88.3445056,"name":"Mahananda WLS--Rongtong and Shivakhola Forest","locId":"L10075254","dates":["2024-01-15","2024-07-27","2024-07-28"]},{"lat":12.2799548,"lng":76.6682813,"name":"Chamundi Hill Nandi Temple","locId":"L11630714","dates":["2023-12-04","2024-01-06","2024-11-09"]},{"lat":18.4142725,"lng":73.9530824,"name":"Kanifnath Temple","locId":"L4025539","dates":["2023-09-02","2024-09-02","2025-07-31"]},{"lat":17.6020447,"lng":77.4855689,"name":"Chunambatti Thanda Forest Patch, Zaheerabad","locId":"L20179126","dates":["2022-07-17","2022-07-31","2023-08-13"]},{"lat":11.572093,"lng":76.6409404,"name":"Masinagudi","locId":"L2431461","dates":["2022-02-26","2022-02-27","2022-12-23"]},{"lat":11.5238614,"lng":76.6592641,"name":"Masinagudi--Forest Hills Guesthouse(Restricted Access)","locId":"L21873833","dates":["2022-12-22","2022-12-23","2022-12-24"]},{"lat":27.7680893,"lng":74.4143057,"name":"Tal Chhapar WLS--Salt Pans","locId":"L4191037","dates":["2024-09-27","2024-09-28","2024-09-29"]},{"lat":27.2184997,"lng":88.6063251,"name":"Dikling Pacheykhani Forest","locId":"L13255062","dates":["2023-12-24","2023-12-25","2024-12-25"]},{"lat":27.8074984,"lng":74.449861,"name":"Tal Chhapar WLS--Gaushala Area","locId":"L4193874","dates":["2024-09-27","2024-09-28","2024-09-29"]},{"lat":15.457241,"lng":73.8123743,"name":"Taj Cidade de Goa Horizon, Goa","locId":"L27359710","dates":["2023-10-03","2023-10-04","2023-10-05"]},{"lat":11.6244,"lng":92.6760453,"name":"Chidiyatapu","locId":"L13058322","dates":["2021-12-17","2021-12-18","2021-12-21"]},{"lat":11.7939728,"lng":92.7138031,"name":"Kalatang Hotspot","locId":"L15066989","dates":["2021-12-19","2021-12-20","2026-03-22"]},{"lat":11.5606624,"lng":76.6484434,"name":"Masinagudi-- Bokkapuram Road","locId":"L9912544","dates":["2022-02-26","2022-02-27","2022-12-23"]},{"lat":28.2327678,"lng":95.9088327,"name":"Mishmi Hills--Coffee House (52 km)","locId":"L4398904","dates":["2022-03-30","2023-04-18","2023-04-21"]},{"lat":27.3725564,"lng":88.5847769,"name":"Taj Guras Kutir Resort & Spa (Restricted Access)","locId":"L38808303","dates":["2024-12-24","2024-12-26","2024-12-27"]},{"lat":27.1767181,"lng":77.5219298,"name":"Bharatpur--Keoladeo Ghana NP--Sapan Mori","locId":"L9087264","dates":["2024-02-22","2024-02-24"]},{"lat":12.159451,"lng":76.5383076,"name":"Arasanakere Gudda ಅರಸನಕೆರೆ ಗುಡ್ಡ","locId":"L11922965","dates":["2021-10-09","2021-10-10"]},{"lat":15.4226027,"lng":73.8916826,"name":"Agacaim Tidal mudflats","locId":"L4157680","dates":["2023-10-06","2023-10-08"]},{"lat":17.551,"lng":78.305,"name":"Kistareddypet Lake","locId":"L22101976","dates":["2024-01-20","2026-01-02"]},{"lat":11.6098541,"lng":92.6870187,"name":"Salt Marsh, Sippighat","locId":"L11135075","dates":["2026-03-18","2026-03-21"]},{"lat":33.3139945,"lng":77.9982948,"name":"Tso Kar","locId":"L2424236","dates":["2022-08-25","2022-08-26"]},{"lat":-1.3773344,"lng":35.1515136,"name":"Narok County, KE (-1.377, 35.152)","locId":"L52496881","dates":["2025-09-06","2025-09-07"]},{"lat":26.7577015,"lng":88.5850813,"name":"Gajoldoba Teesta Barrage","locId":"L10496822","dates":["2023-12-23","2023-12-24"]},{"lat":27.5964512,"lng":95.3651798,"name":"Dibru-Saikhowa NP (Outskirts)--Koliapani Grassland","locId":"L14936844","dates":["2023-01-08","2023-01-09"]},{"lat":27.5785351,"lng":95.3718043,"name":"Unnamed Road, Assam, IN (27.579, 95.372)","locId":"L18264977","dates":["2022-03-27","2022-04-01"]},{"lat":32.7782812,"lng":78.9833092,"name":"Hanle Wetland Complex","locId":"L4796658","dates":["2022-08-23","2022-08-24"]},{"lat":14.3083908,"lng":77.6484835,"name":"Nagasamudram Lake","locId":"L14129802","dates":["2021-09-19","2022-12-17"]},{"lat":27.8003683,"lng":74.457895,"name":"Chhapar - Sujangarh Road, Rampur, Rajasthan, IN (27.8, 74.458)","locId":"L36874402","dates":["2024-09-27","2024-09-29"]},{"lat":12.3585768,"lng":76.6104984,"name":"Mysore City Bird Atlas 2C, Hebbal kere, ಹೆಬ್ಬಾಳ ಕೆರೆ","locId":"L2615824","dates":["1998-11-01","2021-08-31"]},{"lat":18.265006,"lng":74.8028179,"name":"Ujani Dam--Kranti Flamingo Point","locId":"L23223998","dates":["2023-09-01","2023-09-03"]},{"lat":11.545209,"lng":76.646021,"name":"Vibudhimalai Murugan Temple Hill","locId":"L6580627","dates":["2022-12-22","2022-12-24"]},{"lat":15.2668182,"lng":77.7649856,"name":"Vengallam Palle Lake","locId":"L4142820","dates":["2022-03-06","2023-04-02"]},{"lat":11.6183,"lng":92.7063,"name":"Garacharma Wetlands","locId":"L5162872","dates":["2021-12-19","2021-12-21"]},{"lat":11.6073858,"lng":92.6973474,"name":"Sippighat","locId":"L3086750","dates":["2021-12-19","2026-03-21"]},{"lat":-1.4621387,"lng":35.2018261,"name":"Maasai Mara NR--Talek Plains","locId":"L4723246","dates":["2025-09-06","2025-09-09"]},{"lat":-1.5505187,"lng":35.2981535,"name":"Narok County, KE (-1.551, 35.298)","locId":"L52586359","dates":["2025-09-08","2025-09-09"]},{"lat":26.9946244,"lng":88.2854998,"name":"Senchal WLS--Tiger Hill","locId":"L2567411","dates":["2023-07-30","2024-07-26"]},{"lat":27.0663894,"lng":92.4063175,"name":"Eaglenest WLS & Surroundings--Bompu Camp","locId":"L3025449","dates":["2024-04-07","2024-04-08"]},{"lat":27.0474736,"lng":92.4183092,"name":"Eaglenest WLS & Surroundings--Sessni","locId":"L3834855","dates":["2024-04-09","2024-04-10"]},{"lat":28.2797046,"lng":95.912447,"name":"Mishmi Hills--65 (65 km)","locId":"L14476568","dates":["2022-03-29","2023-04-19"]},{"lat":27.1020158,"lng":92.4122826,"name":"Eaglenest WLS & Surroundings--Chaku","locId":"L18170322","dates":["2024-04-07","2024-04-08"]},{"lat":27.0134702,"lng":92.4142939,"name":"Eaglenest WLS & Surroundings--Khellong","locId":"L3508339","dates":["2024-04-10","2024-04-11"]},{"lat":27.7966035,"lng":74.4326306,"name":"Tal Chhapar Sanctuary","locId":"L2615788","dates":["2024-09-27","2024-09-28"]},{"lat":26.8242317,"lng":88.3411567,"name":"Hill Cart Road, Cart Road, West Bengal, IN (26.824, 88.341)","locId":"L28508468","dates":["2023-12-30","2024-01-15"]},{"lat":26.867093,"lng":88.36194,"name":"Mahananda WLS--Sittong DG","locId":"L8454769","dates":["2023-07-31","2024-07-27"]},{"lat":26.862198,"lng":88.3587202,"name":"Tea Garden Near Shivkhola Temple","locId":"L20725546","dates":["2023-07-29","2023-07-31"]},{"lat":17.3480168,"lng":78.442812,"name":"Nehru Zoological Park","locId":"L3229231","dates":["2021-11-21","2024-06-23"]},{"lat":23.4485098,"lng":69.38208,"name":"Kunj Homestay and Surroundings","locId":"L16287063","dates":["2024-09-15","2024-09-16"]},{"lat":12.3290552,"lng":76.7372254,"name":"Huralikyathana Halli","locId":"L19617926","dates":["2023-06-29","2025-07-05"]},{"lat":12.1861266,"lng":76.8243399,"name":"Bilugali-Jodihariharapura Farmlands and Trails","locId":"L58149077","dates":["2026-02-06","2026-02-09"]},{"lat":12.206356,"lng":76.7822891,"name":"Maradihundi And Hosakote Village Fields","locId":"L16268609","dates":["2021-09-02","2022-02-15"]},{"lat":29.3899529,"lng":78.9709711,"name":"Corbett NP--Dhela","locId":"L3962806","dates":["2023-05-27","2023-05-28"]},{"lat":29.446776,"lng":78.89854,"name":"Corbett NP--Jhirna Range","locId":"L3403349","dates":["2023-05-26","2023-05-27"]},{"lat":18.222723,"lng":74.8454522,"name":"Vitthalwadi scrubland","locId":"L8540808","dates":["2023-09-01","2023-09-03"]},{"lat":17.3988955,"lng":78.28525,"name":"Hyderabad, Telangana, IN (17.399, 78.285)","locId":"L21651937","dates":["2022-11-27","2024-10-06"]},{"lat":17.4349038,"lng":78.2858346,"name":"Hyderabad, Telangana, IN (17.435, 78.286)","locId":"L41450595","dates":["2025-03-21","2025-04-25"]},{"lat":15.4387049,"lng":74.2515046,"name":"Tambdi Surla- Mahadev Temple and Surroundings","locId":"L10226290","dates":["2023-10-07","2023-10-08"]},{"lat":31.1158795,"lng":77.3698803,"name":"Taj Theog, Himachal Pradesh (Private)","locId":"L21105866","dates":["2022-10-04","2022-10-05"]},{"lat":31.1181247,"lng":77.3728078,"name":"Theog Outskirts Trail (Near Taj Hotel)","locId":"L21125321","dates":["2022-10-06","2022-10-07"]},{"lat":13.3207888,"lng":77.7244376,"name":"Venkagirikote Kere","locId":"L15887084","dates":["2022-12-26","2023-04-02"]},{"lat":12.8717573,"lng":77.5950688,"name":"26 Bannerghatta Main Road, Bengaluru, Karnataka, IN (12.872, 77.595)","locId":"L18527833","dates":["2022-04-16","2022-05-14"]},{"lat":26.8376631,"lng":88.3467793,"name":"Yamfu  homestay, Sepoy Dhura Tea Garden, West Bengal","locId":"L26265093","dates":["2023-07-29","2023-07-31"]},{"lat":27.1066204,"lng":88.6494005,"name":"Rishop--General Area KP","locId":"L3602182","dates":["2023-12-27","2023-12-29"]},{"lat":32.8507576,"lng":-117.2735641,"name":"Point La Jolla--seawatch","locId":"L233548","dates":["2024-04-29","2025-12-06"]},{"lat":11.5616638,"lng":92.7320025,"name":"Burmanallah","locId":"L13741251","dates":["2021-12-21","2021-12-22"]},{"lat":11.5033231,"lng":92.7021217,"name":"Chidyatapu Biological Park","locId":"L10146708","dates":["2021-12-17","2021-12-18"]},{"lat":11.5668887,"lng":76.6369292,"name":"Masinagudi Temple Pond","locId":"L11599237","dates":["2022-02-25","2022-02-27"]},{"lat":11.7169721,"lng":92.6570608,"name":"Ferragunj forest","locId":"L23225801","dates":["2026-03-18","2026-03-19"]},{"lat":34.0981448,"lng":77.5951856,"name":"Chuchot Bridge area","locId":"L6995422","dates":["2022-08-20","2022-08-26"]},{"lat":33.6026498,"lng":-111.8766834,"name":"Windrose Estates (Restricted Access)","locId":"L27717273","dates":["2023-10-28","2023-10-29"]},{"lat":-1.3817123,"lng":35.134957,"name":"Unnamed Road, Narok County, KE (-1.382, 35.135)","locId":"L52499912","dates":["2025-09-06","2025-09-07"]},{"lat":27.7504293,"lng":95.6198466,"name":"Lohit Bridge Approach Road, Assam, IN (27.75, 95.62)","locId":"L18312774","dates":["2022-03-31","2023-04-18"]},{"lat":27.3115329,"lng":95.4697,"name":"Dihing Patkai NP--Soraipung (Ranger's Office)","locId":"L20825997","dates":["2026-01-25","2026-01-27"]},{"lat":-1.4679192,"lng":35.2465114,"name":"Unnamed Road, Narok County, KE (-1.468, 35.247)","locId":"L52590340","dates":["2025-09-08","2025-09-09"]},{"lat":17.2297,"lng":78.4316,"name":"Hyderabad Airport","locId":"L1122785","dates":["2026-02-06","2026-04-24"]},{"lat":28.2228171,"lng":95.8348869,"name":"Mishmi Hills--Tiwari Gaon (28 km)","locId":"L13758735","dates":["2023-04-20","2023-04-22"]},{"lat":23.5822381,"lng":69.3151474,"name":"Chhari Dhandh Conservation Reserve","locId":"L3135946","dates":["2024-09-14","2024-09-15"]},{"lat":28.1873481,"lng":95.8084253,"name":"National Highway 313, Arunachal Pradesh, IN (28.187, 95.808)","locId":"L8523701","dates":["2022-03-27","2022-03-31"]},{"lat":13.2810544,"lng":93.024961,"name":"Aerial Bay Jetty, Diglipur","locId":"L40809565","dates":["2026-03-19","2026-03-20"]},{"lat":12.8522848,"lng":74.8329402,"name":"Old Mangalore Port (Dakke)","locId":"L5670672","dates":["2024-11-16","2024-11-17"]},{"lat":11.4186585,"lng":76.7109237,"name":"Botanical Garden, Ooty","locId":"L2755118","dates":["2022-02-26","2022-12-24"]},{"lat":27.3056264,"lng":88.6503004,"name":"Changthang-Naitam-Pabyuik","locId":"L22488608","dates":["2023-12-25","2023-12-26"]},{"lat":26.990251,"lng":92.4209808,"name":"Doimara Bridge","locId":"L14187982","dates":["2024-04-10","2024-04-11"]},{"lat":26.8579721,"lng":88.2639185,"name":"Makai Bari Tea Garden","locId":"L28754945","dates":["2024-01-13","2024-01-16"]},{"lat":26.879941,"lng":88.3032861,"name":"Paglajhora Falls","locId":"L13850032","dates":["2023-07-30","2024-07-26"]},{"lat":27.0875188,"lng":88.6591999,"name":"Lava WB Forest Dept lodge","locId":"L2701772","dates":["2023-12-27","2023-12-29"]},{"lat":28.2112391,"lng":95.8071756,"name":"Mishmi Hills--Baramile (12th Mile)","locId":"L4573742","dates":["2023-04-18","2023-04-21"]},{"lat":28.2419812,"lng":95.9252774,"name":"Mishmi Hills--Mayodia Pass (56 km)","locId":"L13071676","dates":["2023-04-18","2023-04-21"]},{"lat":27.125239,"lng":92.4555467,"name":"Eaglenest WLS & Surroundings--Eaglenest Pass","locId":"L18170351","dates":["2024-04-06","2024-04-07"]},{"lat":-1.2995815,"lng":35.0587048,"name":"Maasai Mara NR--Musiara Airstrip","locId":"L5174792","dates":["2025-09-07"]},{"lat":-1.3557323,"lng":36.8204985,"name":"Nairobi NP* general (use more precise loc.)","locId":"L915651","dates":["2025-09-11"]},{"lat":18.5827577,"lng":77.8872551,"name":"Pedda Cheruvu, Rudrur","locId":"L17474328","dates":["2022-01-21"]},{"lat":26.9863356,"lng":77.592144,"name":"Shri Guru madhvanand Pratibha college, Rupbas","locId":"L28879142","dates":["2024-02-23"]},{"lat":17.4320334,"lng":78.4767795,"name":"Sanjeevaiah Park","locId":"L2472492","dates":["2022-07-31"]},{"lat":23.4832454,"lng":69.2620185,"name":"Laiyari Riverbed Formations","locId":"L36625188","dates":["2024-09-16"]},{"lat":12.1776512,"lng":76.5459538,"name":"Arasanakere ಅರಸನಕೆರೆ","locId":"L2486917","dates":["2021-10-09"]},{"lat":16.423834,"lng":78.724662,"name":"Brahmanpalli Lake","locId":"L17461580","dates":["2022-01-17"]},{"lat":18.2887021,"lng":74.7760435,"name":"Ujani Dam--Kumbhargaon Bird Sanctuary","locId":"L2814614","dates":["2025-08-03"]},{"lat":17.6784823,"lng":78.0867503,"name":"Anantha Padmanabha Swamy Temple -- Manjeera","locId":"L34705268","dates":["2025-07-27"]},{"lat":17.584224,"lng":78.276974,"name":"Indresham TRR Nagar Grassland","locId":"L46988737","dates":["2025-06-07"]},{"lat":17.643404,"lng":78.060062,"name":"Manjeera -- Irgipally Route","locId":"L25490146","dates":["2023-10-14"]},{"lat":22.7923445,"lng":72.0231432,"name":"Nalsarovar Bird Sanctuary","locId":"L2372505","dates":["2024-03-23"]},{"lat":27.2074908,"lng":92.3981682,"name":"Rupa","locId":"L28087652","dates":["2024-04-06"]},{"lat":36.0685619,"lng":-115.1126862,"name":"Sunset Park","locId":"L456488","dates":["2023-05-17"]},{"lat":33.602074,"lng":-111.7119938,"name":"Fountain Hills Lake","locId":"L357654","dates":["2023-10-28"]},{"lat":37.459984,"lng":-122.106112,"name":"Palo Alto Baylands--Boardwalk","locId":"L12742110","dates":["2025-07-13"]},{"lat":37.4274336,"lng":-122.0862687,"name":"Permanente Creek Trail","locId":"L3338783","dates":["2025-07-18"]},{"lat":37.432341,"lng":-122.0918369,"name":"Shoreline Park--Shoreline Lake area","locId":"L594012","dates":["2025-07-18"]},{"lat":37.4057129,"lng":-121.9552374,"name":"Ulistac Natural Area","locId":"L773892","dates":["2026-04-26"]},{"lat":-1.5897369,"lng":35.2361959,"name":"Maasai Mara NR--Keekorok Lodge","locId":"L1279976","dates":["2025-09-09"]},{"lat":-1.2917885,"lng":35.0598429,"name":"Unnamed Road, Narok County, KE (-1.292, 35.06)","locId":"L52538410","dates":["2025-09-07"]},{"lat":-1.3113337,"lng":35.0983076,"name":"Unnamed Road, Narok County, KE (-1.311, 35.098)","locId":"L52554978","dates":["2025-09-07"]},{"lat":22.8644055,"lng":72.0577429,"name":"Kayla, Gujarat, IN","locId":"L30021362","dates":["2024-03-23"]},{"lat":27.3680705,"lng":88.826437,"name":"Hangu Lake (Tanyek Tso)--Sherathang","locId":"L13761469","dates":["2024-12-26"]},{"lat":27.3779433,"lng":88.7742784,"name":"Jawaharlal Nehru Road, East Sikkim, Sikkim, IN (27.378, 88.774)","locId":"L38865388","dates":["2024-12-26"]},{"lat":27.3751439,"lng":88.7678146,"name":"Tsomgo (Changu Lake)","locId":"L6877118","dates":["2024-12-26"]},{"lat":33.2594839,"lng":78.1854898,"name":"Polokong La","locId":"L3056872","dates":["2022-08-25"]},{"lat":26.6572489,"lng":77.9041278,"name":"National chambal sanctuary","locId":"L17360446","dates":["2024-02-23"]},{"lat":18.511775,"lng":78.2506135,"name":"Gannaram Pond (గన్నారం పాండ్), Nizamabad, Telangana, IN (18.512, 78.251)","locId":"L17496519","dates":["2022-01-21"]},{"lat":22.9138861,"lng":71.9714677,"name":"Vadala Dam","locId":"L10231263","dates":["2024-03-23"]},{"lat":26.9871934,"lng":77.6101238,"name":"Rupvas, Bhiriyani, Rajasthan, IN","locId":"L29445386","dates":["2024-02-23"]},{"lat":17.9712221,"lng":77.3825026,"name":"Blackbuck Resort  ಕೃಷ್ಣಮೃಗ ಸಂರಕ್ಷಣಾಧಾಮ","locId":"L2591365","dates":["2023-01-26"]},{"lat":17.9306687,"lng":77.4943936,"name":"Papnash Lake Forest ಪಾಪನಾಶ ಕೆರೆ ಅರಣ್ಯ","locId":"L5202148","dates":["2023-01-26"]},{"lat":27.7959012,"lng":74.4080937,"name":"Charwas Village Pond","locId":"L4191111","dates":["2024-09-28"]},{"lat":23.616547,"lng":69.3855286,"name":"Banni grassland--Bhagadiya Thath","locId":"L5055708","dates":["2024-09-15"]},{"lat":23.4948189,"lng":69.7873249,"name":"Unnamed Road, Kachchh, Gujarat, IN (23.495, 69.787)","locId":"L36555479","dates":["2024-09-14"]},{"lat":18.1234208,"lng":78.1981087,"name":"Pocharam Wildlife Sanctuary","locId":"L4023922","dates":["2021-12-05"]},{"lat":12.3329753,"lng":76.3838196,"name":"Arabithittu Wildlife Sanctuary    ಅರಬಿತಿಟ್ಟು ವನ್ಯಜೀವಿ ಧಾಮ","locId":"L2489266","dates":["2022-08-07"]},{"lat":12.2236538,"lng":76.7660768,"name":"Fields and Roads around Moraji Desai Residential School","locId":"L16446615","dates":["2021-09-23"]},{"lat":12.2706199,"lng":76.7464167,"name":"Varuna kere (ವರುಣಾ ಕೆರೆ)","locId":"L2576264","dates":["2026-04-22"]},{"lat":12.2605066,"lng":76.7130762,"name":"Yandahalli, Karnataka, IN (12.261, 76.713)","locId":"L19929678","dates":["2022-07-02"]},{"lat":18.4258833,"lng":74.5631278,"name":"Daund Scrubland","locId":"L17525057","dates":["2025-08-01"]},{"lat":17.5556261,"lng":78.2375788,"name":"Bachuguda Grasslands","locId":"L46990595","dates":["2025-06-07"]},{"lat":17.556002,"lng":78.237887,"name":"Pocharam Village - Near temple ( Chitkul road)","locId":"L46986560","dates":["2025-06-07"]},{"lat":24.851515,"lng":55.346498,"name":"Al Marmoom DCR--general area","locId":"L3231979","dates":["2025-12-23"]},{"lat":33.0079485,"lng":-117.2597628,"name":"Santa Inez Trail, Solana Beach","locId":"L37333125","dates":["2024-10-14"]},{"lat":33.1639261,"lng":78.8149823,"name":"Loma Bridge marshes area","locId":"L16489885","dates":["2022-08-23"]},{"lat":-1.4611091,"lng":35.2310944,"name":"Maasai Mara NR--Ilkeliani Camp","locId":"L1028704","dates":["2025-09-08"]},{"lat":-1.5296902,"lng":35.3189099,"name":"Maasai Mara NR--Sarova Mara Game Camp","locId":"L2741698","dates":["2025-09-08"]},{"lat":-1.372723,"lng":35.1806445,"name":"Narok County, KE (-1.373, 35.181)","locId":"L52483929","dates":["2025-09-06"]},{"lat":-1.3855154,"lng":35.1654849,"name":"Unnamed Road, Narok County, KE (-1.386, 35.165)","locId":"L52527086","dates":["2025-09-06"]},{"lat":33.6492166,"lng":-111.8604858,"name":"McDowell Sonoran Preserve--Gateway Area","locId":"L1444127","dates":["2023-10-28"]},{"lat":28.2384642,"lng":95.8914185,"name":"IHO view point","locId":"L13071766","dates":["2022-03-30"]},{"lat":26.914797,"lng":88.403592,"name":"Mahananda WLS--Latpanchar","locId":"L3010063","dates":["2024-01-14"]},{"lat":13.097133,"lng":77.381176,"name":"Nelamangala Taluk (OBI)","locId":"L14937635","dates":["2023-04-01"]},{"lat":11.6720743,"lng":76.6179228,"name":"Bandipur NP, ಬಂಡೀಪುರ ರಾಷ್ಟ್ರೀಯ ಉದ್ಯಾನವನ","locId":"L3955150","dates":["2022-12-22"]},{"lat":11.7206011,"lng":76.5870237,"name":"Bandipur NP--Gopalswamy Betta","locId":"L3922952","dates":["2007-01-07"]},{"lat":27.7279583,"lng":74.3522833,"name":"Dungras Athoona, Rajasthan, IN (27.728, 74.352)","locId":"L36929115","dates":["2024-09-29"]},{"lat":27.7460402,"lng":74.3849258,"name":"Gopalpura, Rajasthan, IN (27.746, 74.385)","locId":"L36928610","dates":["2024-09-29"]},{"lat":26.837001,"lng":88.3422787,"name":"Rongtong railway station","locId":"L31017692","dates":["2024-07-26"]},{"lat":26.8352633,"lng":88.3405783,"name":"Siliguri, West Bengal, IN (26.835, 88.341)","locId":"L28505905","dates":["2023-12-30"]},{"lat":26.8507422,"lng":88.3585943,"name":"Sipohidhura","locId":"L22101464","dates":["2024-07-25"]},{"lat":23.2984797,"lng":69.7328507,"name":"Nagor-Raydhanpar Road, Purasar, Gujarat, IN (23.298, 69.733)","locId":"L36554130","dates":["2024-09-14"]},{"lat":23.2790435,"lng":69.180522,"name":"Piyoni Mahadev","locId":"L13160435","dates":["2024-09-15"]},{"lat":23.4159957,"lng":69.372353,"name":"Rawalpir Dargah Thorn Forest","locId":"L16304900","dates":["2024-09-16"]},{"lat":12.1853839,"lng":76.7243674,"name":"Immavu Industrial Area-KAIDB ಇಮ್ಮಾವು ಕೈಗಾರಿಕಾ ಪ್ರದೇಶ","locId":"L21592798","dates":["2022-12-19"]},{"lat":12.1421177,"lng":76.5359994,"name":"Kadanahalli Gudda ಕಾಡನಹಳ್ಳಿ ಗುಡ್ಡ","locId":"L11788048","dates":["2021-10-09"]},{"lat":12.0349612,"lng":76.8336528,"name":"Konanur Scrub & Grass Land, ಕೊಣನೂರು ಕುರುಚಲು ಮತ್ತು ಹುಲ್ಲುಗಾವಲು","locId":"L2941276","dates":["2023-09-24"]},{"lat":12.1486072,"lng":76.7914216,"name":"Kupparavalli, Karnataka, IN (12.149, 76.791)","locId":"L19903205","dates":["2022-06-30"]},{"lat":12.2774655,"lng":76.5973631,"name":"Mysore City Bird Atlas 23D, Somanatha Nagar, Mysore","locId":"L2603075","dates":["2022-05-17"]},{"lat":12.2762186,"lng":76.5669002,"name":"Mysore City Bird Atlas 49C Ramanahundi Brick Factory & Layout","locId":"L22772327","dates":["2023-08-05"]},{"lat":15.463173,"lng":74.0890503,"name":"Ganjem Junction and Ganjeshwari Temple","locId":"L3947131","dates":["2023-10-07"]},{"lat":18.2750293,"lng":74.5902768,"name":"Shirsuphal Grassland Safari","locId":"L27736499","dates":["2025-08-03"]},{"lat":17.3668197,"lng":78.3525714,"name":"Forest Trek Park","locId":"L27609119","dates":["2026-04-03"]},{"lat":17.4541252,"lng":78.3569944,"name":"Kondapur Botanical Garden","locId":"L3202489","dates":["2026-04-04"]},{"lat":17.3273655,"lng":78.2892624,"name":"Moinabad, Telangana, IN","locId":"L30618271","dates":["2024-04-14"]},{"lat":33.0998107,"lng":-116.9923353,"name":"San Diego Zoo","locId":"L41657752","dates":["2016-04-30"]},{"lat":15.4109057,"lng":74.2002869,"name":"Natures Nest","locId":"L12572544","dates":["2023-10-08"]},{"lat":11.5166874,"lng":76.6733424,"name":"Sholur, Tamil Nadu, IN (11.517, 76.673)","locId":"L17926075","dates":["2022-02-26"]},{"lat":11.5661224,"lng":76.6344619,"name":"Singara Road, Masinagudi, Tamil Nadu, IN (11.566, 76.634)","locId":"L17939004","dates":["2022-02-27"]},{"lat":17.2724042,"lng":77.9456424,"name":"Damagundam -- Grassland","locId":"L20711489","dates":["2025-06-14"]},{"lat":10.1430934,"lng":77.0479077,"name":"Eravikulam NP--Checkpost","locId":"L7094552","dates":["2024-07-05"]},{"lat":12.4466737,"lng":75.6988197,"name":"Monnengeri","locId":"L16835320","dates":["2022-02-16"]},{"lat":15.4418498,"lng":74.1061735,"name":"Bondla Wildlife Sanctuary","locId":"L1062323","dates":["2023-10-07"]},{"lat":15.4670455,"lng":74.0832527,"name":"Ganjem bridge","locId":"L3319426","dates":["2023-10-07"]},{"lat":18.891222,"lng":73.1138446,"name":"Karnala Bird Sanctuary--Hariyal trail","locId":"L2663813","dates":["2024-09-01"]},{"lat":11.5464665,"lng":76.6782618,"name":"Masinagudi Scrub Jungle","locId":"L3515492","dates":["2022-12-23"]},{"lat":23.3757863,"lng":72.6907571,"name":"Taj Gandhinagar (Restricted Access)","locId":"L30001932","dates":["2024-03-22"]},{"lat":23.4554,"lng":69.3468,"name":"Dhinodhar Hill and Tropical Thorn Forest","locId":"L10499498","dates":["2024-09-14"]},{"lat":15.7366402,"lng":78.3411884,"name":"Rollapadu Wildlife Sanctuary","locId":"L3176920","dates":["2022-12-17"]},{"lat":18.2711743,"lng":74.7958419,"name":"Agnipankh Flamingo Birding Point Homestay, Kumbhargaon","locId":"L35168264","dates":["2025-08-01"]},{"lat":18.2720672,"lng":74.7979969,"name":"Ujani Dam--Agneepankh","locId":"L10895510","dates":["2025-08-01"]},{"lat":17.91746,"lng":74.153341,"name":"NH 965D, Satara","locId":"L50847958","dates":["2025-08-02"]},{"lat":18.4105896,"lng":73.9040422,"name":"Bopdeo Ghat, Pune","locId":"L2974417","dates":["2023-09-02"]},{"lat":-1.3702136,"lng":35.1689502,"name":"Narok County, KE (-1.37, 35.169)","locId":"L52491873","dates":["2025-09-06"]},{"lat":34.0473335,"lng":77.9303349,"name":"Changla Pass","locId":"L14160795","dates":["2022-08-21"]},{"lat":-1.2756991,"lng":35.0515366,"name":"Maasai Mara NR--Musiara Swamp","locId":"L4715640","dates":["2025-09-07"]},{"lat":34.1063004,"lng":77.8339786,"name":"Wari La Pass","locId":"L5199610","dates":["2022-08-22"]},{"lat":17.9173702,"lng":73.7850645,"name":"Panchgani","locId":"L6691838","dates":["2025-08-02"]},{"lat":11.4686822,"lng":76.6833681,"name":"Kalahatty Ghat Road--Mountain`n' mist","locId":"L4924147","dates":["2022-12-24"]},{"lat":11.4456825,"lng":76.6726472,"name":"Thalaikundha","locId":"L5089509","dates":["2022-02-26"]},{"lat":28.8186336,"lng":78.5788019,"name":"Budhanpur, Uttar Pradesh, IN (28.819, 78.579)","locId":"L24635409","dates":["2023-05-25"]},{"lat":27.1019107,"lng":77.0935483,"name":"Moodiya Jat, Rajasthan, IN (27.102, 77.094)","locId":"L29428737","dates":["2024-02-22"]},{"lat":32.056249,"lng":-116.8747804,"name":"Laguna de La Salina","locId":"L620972","dates":["2024-10-19"]},{"lat":17.3919709,"lng":78.4929084,"name":"Near Karnataka Sahitya Mandira","locId":"L34461718","dates":["2024-07-07"]},{"lat":27.0161263,"lng":75.8813817,"name":"Taj Amer (Restricted)","locId":"L38037206","dates":["2024-11-15"]},{"lat":23.607957,"lng":69.690633,"name":"Banni Gateway","locId":"L29043525","dates":["2024-09-14"]},{"lat":28.1872675,"lng":95.8070875,"name":"Mishmi Hills--6 km","locId":"L12192463","dates":["2022-03-31"]},{"lat":12.4525644,"lng":76.5566922,"name":"KRS Backwaters - Basadi Hosakote","locId":"L9377734","dates":["2022-02-18"]},{"lat":12.6423514,"lng":76.4787682,"name":"Unnamed Road, Hosaholalu, Karnataka, IN (12.642, 76.479)","locId":"L16645695","dates":["2021-10-15"]},{"lat":12.16845,"lng":76.7927997,"name":"Suttur Kabini Bridge","locId":"L10360474","dates":["2021-10-06"]},{"lat":16.6992075,"lng":78.9254218,"name":"Fort trek path, Devarakonda, Telangana, IN","locId":"L32356218","dates":["2024-05-26"]},{"lat":28.6270589,"lng":77.216624,"name":"Jantar Mantar, New delhi","locId":"L5395026","dates":["2022-05-05"]},{"lat":18.1666413,"lng":74.7765903,"name":"Bhavaninagar - Bhigwan Grasslands","locId":"L26906307","dates":["2023-09-03"]},{"lat":18.2435028,"lng":74.7817073,"name":"Ujani Dam--Bhandalwadi Lake Bird Sanctuary, Bhigwan","locId":"L10895671","dates":["2023-09-01"]},{"lat":23.1492697,"lng":70.7426833,"name":"Gujarat State Highway 6, Rajkot, Gujarat, IN (23.149, 70.743)","locId":"L36640837","dates":["2024-09-17"]},{"lat":17.2546855,"lng":78.3891063,"name":"Lake Kamuni Shamshabad","locId":"L8710494","dates":["2026-01-11"]},{"lat":17.2736348,"lng":78.4269376,"name":"Sathamrai Village Surroundings","locId":"L54940113","dates":["2025-11-09"]},{"lat":32.9128467,"lng":-117.2054958,"name":"Los Penasquitos Canyon Preserve--west","locId":"L788021","dates":["2022-09-11"]},{"lat":11.6857089,"lng":92.723147,"name":"3 Foreshore Road, Sri Vijaya Puram, Andaman and Nicobar Islands, IN (11.686, 92.723)","locId":"L60504438","dates":["2026-03-19"]},{"lat":11.5549197,"lng":92.7309649,"name":"Burmanallah","locId":"L11135068","dates":["2021-12-17"]},{"lat":27.2615682,"lng":88.436157,"name":"Sipu Pul Bridge, Yangang Rd","locId":"L38888399","dates":["2024-12-27"]},{"lat":27.9133003,"lng":95.7659018,"name":"Chapakhowa, Assam, IN (27.913, 95.766)","locId":"L18267259","dates":["2022-03-27"]},{"lat":24.7388816,"lng":46.6594216,"name":"7171 الملك فهد الفرعي, Riyadh, Riyadh Province, SA (24.739, 46.659)","locId":"L55256643","dates":["2025-11-19"]},{"lat":-1.3194576,"lng":36.8369756,"name":"A104, Nairobi, Nairobi County","locId":"L52445606","dates":["2025-09-05"]},{"lat":25.2482852,"lng":55.3618015,"name":"Dubai Airport","locId":"L1077383","dates":["2023-05-07"]},{"lat":24.66674,"lng":46.607066,"name":"Wadi Hanifah Park (حديقة وادي حنيفة)","locId":"L21747929","dates":["2025-12-03"]},{"lat":30.6643789,"lng":76.8450713,"name":"Zirakpur-Panchkula-Kalka Highway, Zirakpur, Punjab, IN (30.664, 76.845)","locId":"L21138085","dates":["2022-10-07"]},{"lat":32.9558469,"lng":78.9049808,"name":"Lal Pahari/Ri Marpo Marshes","locId":"L11329982","dates":["2022-08-23"]},{"lat":11.4011256,"lng":76.7358595,"name":"Doddabetta Peak","locId":"L3030776","dates":["2022-12-24"]},{"lat":12.4656,"lng":92.8914896,"name":"Rangat, Andaman and Nicobar Islands, IN (12.466, 92.891)","locId":"L60640597","dates":["2026-03-21"]},{"lat":27.006354,"lng":88.264969,"name":"Rishi, Darjeeling (OBI)","locId":"L14938645","dates":["2024-07-26"]},{"lat":27.0870404,"lng":88.6624038,"name":"Lava--General Area KP","locId":"L3231459","dates":["2023-12-27"]},{"lat":31.1119106,"lng":77.2351265,"name":"Shimla Water Catchment WLS","locId":"L3118449","dates":["2022-10-05"]},{"lat":12.1499171,"lng":76.5418465,"name":"Shree Bheereshwara Temple ಶ್ರೀ ಬೀರೇಶ್ವರ ಗುಡಿ, Nanagalli ನನಗಳ್ಳಿ","locId":"L12058390","dates":["2021-10-09"]},{"lat":24.816823,"lng":55.250909,"name":"Al Marmoom DCR--Muqatra","locId":"L9898600","dates":["2025-12-23"]},{"lat":-1.1581633,"lng":35.7486105,"name":"Ewaso Ngiro--Sandgrouse Curios and Art Gallery","locId":"L27960283","dates":["2025-09-05"]},{"lat":-1.5799922,"lng":35.3379272,"name":"Narok County, KE (-1.58, 35.338)","locId":"L52585339","dates":["2025-09-08"]},{"lat":11.5989818,"lng":92.6928542,"name":"Sippighat-2","locId":"L10217841","dates":["2026-03-21"]},{"lat":14.8659554,"lng":77.5917331,"name":"Bangalore - Hyderabad Highway, Sirivaram, Andhra Pradesh, IN (14.866, 77.592)","locId":"L19004300","dates":["2022-05-13"]},{"lat":28.0662893,"lng":95.7128883,"name":"Jia Grassland","locId":"L18909035","dates":["2022-03-31"]},{"lat":17.5725755,"lng":78.5578405,"name":"Hyderabad, Telangana, IN (17.573, 78.558)","locId":"L21807975","dates":["2022-12-16"]},{"lat":17.3664424,"lng":78.4110232,"name":"Hyderabad, Telangana, IN (17.366, 78.411)","locId":"L37101993","dates":["2024-10-06"]},{"lat":17.3872643,"lng":78.3162384,"name":"Hyderabad, Telangana, IN (17.387, 78.316)","locId":"L37100691","dates":["2024-10-06"]},{"lat":17.4281996,"lng":78.3318782,"name":"Iskcon Youth Center, Behind Q City","locId":"L52087768","dates":["2025-08-27"]},{"lat":17.3583708,"lng":78.2995376,"name":"Telangana, IN (17.358, 78.3)","locId":"L21265676","dates":["2022-10-17"]},{"lat":11.5427953,"lng":76.6399181,"name":"Sholur, Tamil Nadu, IN (11.543, 76.64)","locId":"L17939908","dates":["2022-02-27"]},{"lat":27.3535046,"lng":95.5279925,"name":"Duliajan-Digboi Road, Lakhipathar Block, Assam, IN (27.354, 95.528)","locId":"L18241744","dates":["2022-03-25"]},{"lat":27.5663592,"lng":95.3669872,"name":"Gelapukhuri Road, Erasuti N.C., Assam, IN (27.566, 95.367)","locId":"L22179831","dates":["2023-01-13"]},{"lat":25.1244299,"lng":55.1526654,"name":"Taj Exotica Resort & Spa at Palm.Jumeria","locId":"L56174183","dates":["2025-12-21"]},{"lat":27.0922441,"lng":88.6874955,"name":"Lava-Kolakham Forest Road KP","locId":"L11219619","dates":["2023-12-28"]},{"lat":28.1880923,"lng":95.7985497,"name":"Mishmi Hills - Dibang Valley Jungle Camp","locId":"L9251954","dates":["2022-03-28"]},{"lat":35.2568688,"lng":-116.0720801,"name":"Baker sewage ponds","locId":"L418021","dates":["2023-05-14"]},{"lat":33.6904242,"lng":-111.7179108,"name":"Pemberton Trailhead","locId":"L7306538","dates":["2023-10-29"]},{"lat":42.3725856,"lng":-71.2406968,"name":"Riverwalk Park","locId":"L1343542","dates":["2024-10-24"]},{"lat":32.847647,"lng":-117.27882,"name":"La Jolla--Children's Pool (harbor seal haul out)","locId":"L715140","dates":["2023-03-04"]},{"lat":12.4969075,"lng":92.8970302,"name":"Great Andaman Trunk Road, North and Middle Andaman, Andaman and Nicobar Islands, IN (12.497, 92.897)","locId":"L60641482","dates":["2026-03-21"]},{"lat":12.465529,"lng":92.891659,"name":"Rangat, North And Middle Andaman IN-Andaman and Nicobar Islands 12.46553, 92.89166","locId":"L60649835","dates":["2026-03-21"]},{"lat":27.4884821,"lng":95.3556548,"name":"Tinsukia Town","locId":"L8585341","dates":["2023-01-14"]},{"lat":27.48729,"lng":96.207344,"name":"Miao--General Area","locId":"L5242578","dates":["2023-01-12"]},{"lat":-1.2991721,"lng":35.0379522,"name":"Maasai Mara NR--Governor's Camp","locId":"L921195","dates":["2025-09-07"]},{"lat":26.9054671,"lng":88.2922142,"name":"Hill Cart Road, Kurseong, West Bengal, IN","locId":"L26281892","dates":["2023-07-30"]},{"lat":13.4436924,"lng":94.2584801,"name":"Narcondam Island","locId":"L7431437","dates":["2026-03-20"]},{"lat":28.1672909,"lng":95.8374319,"name":"Sally Lake","locId":"L4411872","dates":["2023-04-22"]},{"lat":-1.3305322,"lng":35.0890035,"name":"Maasai Mara NR--Northern section and boundaries","locId":"L920932","dates":["2025-09-07"]},{"lat":-1.5791568,"lng":35.3310807,"name":"Narok County, KE (-1.579, 35.331)","locId":"L52583642","dates":["2025-09-08"]},{"lat":13.2248384,"lng":93.0448713,"name":"Pristine Beach Resort","locId":"L17770020","dates":["2026-03-20"]},{"lat":12.497005,"lng":92.89705,"name":"Rangat, North And Middle Andaman IN-Andaman and Nicobar Islands 12.49700, 92.89705","locId":"L60649911","dates":["2026-03-21"]},{"lat":11.6405348,"lng":92.6611232,"name":"Chouldhari wetland","locId":"L57243296","dates":["2026-03-22"]},{"lat":11.6744929,"lng":92.7237772,"name":"Panipat Road, Sri Vijaya Puram, Andaman and Nicobar Islands, IN (11.674, 92.724)","locId":"L60851322","dates":["2026-03-23"]},{"lat":11.6409299,"lng":92.6522326,"name":"Port Mort Campus, SA","locId":"L6931869","dates":["2026-03-22"]},{"lat":10.11754,"lng":76.67223,"name":"Kalappara(Sub Cell-60,18,8)","locId":"L4880041","dates":["2024-07-05"]},{"lat":10.1289289,"lng":76.6878202,"name":"Thattekkad--Bird Songs Homestay","locId":"L21346839","dates":["2024-07-04"]},{"lat":18.860927,"lng":73.129491,"name":"Auto selected 18.86093, 73.12949","locId":"L50717458","dates":["2025-07-30"]},{"lat":15.410996,"lng":74.2001152,"name":"Natures Nest & Surrounding","locId":"L3199176","dates":["2023-10-06"]},{"lat":15.415469,"lng":74.189273,"name":"Dharbandora, South Goa IN-GA 15.41547, 74.18927","locId":"L27395173","dates":["2023-10-06"]},{"lat":26.1087517,"lng":91.691957,"name":"Guwahati Waste Disposal--New","locId":"L19022280","dates":["2024-04-04"]},{"lat":12.349954,"lng":76.5133885,"name":"Coastal Nursery, Mysuru-Madikeri Road","locId":"L28696771","dates":["2024-01-07"]},{"lat":17.4029049,"lng":78.2233306,"name":"Gopularam, Telangana, IN (17.403, 78.223)","locId":"L22281532","dates":["2023-01-21"]},{"lat":18.88608,"lng":73.142545,"name":"Unnamed Road, Akulwadi, Maharashtra, IN (18.886, 73.143)","locId":"L36202901","dates":["2024-08-31"]},{"lat":27.1002025,"lng":88.6801472,"name":"Neora Valley Jungle Camp, Kolakham KP","locId":"L2774884","dates":["2023-12-28"]},{"lat":28.2878942,"lng":95.9213799,"name":"Mishmi Hills--65 km to 12 Gulai","locId":"L15145383","dates":["2023-04-19"]},{"lat":10.1273569,"lng":76.7545867,"name":"Thattekad Bird Sanctuary--Urulanthanni","locId":"L2726505","dates":["2024-07-05"]},{"lat":10.0976736,"lng":76.7158967,"name":"Thattekad--Soma Birds Lagoon","locId":"L3648178","dates":["2024-07-04"]},{"lat":13.2909903,"lng":93.0478351,"name":"Andaman Sea, Andaman and Nicobar Islands, IN (13.291, 93.048)","locId":"L60637867","dates":["2026-03-21"]},{"lat":10.1071412,"lng":77.0576978,"name":"Kannimala","locId":"L4794371","dates":["2024-07-05"]},{"lat":23.386832,"lng":69.26576,"name":"Moti Virani (OBI)","locId":"L14906315","dates":["2024-09-16"]},{"lat":18.967132,"lng":73.131575,"name":"Panvel Kochi Kanyakumari Highway, Navi Mumbai IN-Maharashtra 18.96713, 73.13158","locId":"L50747932","dates":["2025-07-31"]},{"lat":33.023787,"lng":-117.2282934,"name":"4904 San Elijo Avenue, Rancho Santa Fe, California, US (33.024, -117.228)","locId":"L24316550","dates":["2023-05-13"]},{"lat":32.8785707,"lng":-117.2050902,"name":"Nexus Center Dr. tipus","locId":"L12750260","dates":["2023-10-30"]},{"lat":32.8783886,"lng":-117.2082533,"name":"Servicenow, Eastgate Mall","locId":"L30884435","dates":["2024-04-22"]},{"lat":22.8387074,"lng":72.0269702,"name":"Nalsarovar--Chaurathali","locId":"L21718790","dates":["2024-03-23"]},{"lat":18.2761421,"lng":74.7779439,"name":"Ujani Dam--Highway side lake, Bhigwan","locId":"L27447025","dates":["2025-08-02"]},{"lat":18.2841552,"lng":74.7557449,"name":"Ujani Dam--Takrarwadi-Madanwadi","locId":"L8566002","dates":["2025-08-03"]},{"lat":17.4692952,"lng":78.3153197,"name":"Nallagandla Lake","locId":"L8013705","dates":["2021-07-03"]},{"lat":27.1274619,"lng":92.2604483,"name":"Food Hut, Shergaon","locId":"L30339071","dates":["2024-04-05"]},{"lat":22.8297869,"lng":72.0982611,"name":"Nalsarovar Outskirts--Aniyali","locId":"L7086283","dates":["2024-03-23"]},{"lat":23.1966021,"lng":70.7163119,"name":"Little Rann of Kachchh--Surajbari Bridge","locId":"L3315817","dates":["2024-09-17"]},{"lat":27.711316,"lng":95.5779005,"name":"Dhadum Pathar & Surroundings","locId":"L16924088","dates":["2026-01-23"]},{"lat":16.770755,"lng":78.005205,"name":"Mahabubnagar Cricket Ground Areas, Zainallipur","locId":"L57106100","dates":["2026-01-11"]},{"lat":-1.3800583,"lng":35.1873726,"name":"Narok County, KE (-1.38, 35.187)","locId":"L52489198","dates":["2025-09-06"]},{"lat":27.5204885,"lng":95.3424458,"name":"Makum Bypass Road, Nokhroy Gaon, Assam, IN (27.52, 95.342)","locId":"L18239475","dates":["2022-03-25"]},{"lat":12.0481792,"lng":76.6931748,"name":"Sindhuvalli, Nanjanagudu (ಸಿಂಧುವಳ್ಳಿ)","locId":"L2526011","dates":["2022-12-22"]},{"lat":13.2238722,"lng":93.0445755,"name":"Kalipur Beach, Diglipur","locId":"L10109290","dates":["2026-03-20"]},{"lat":-1.379262,"lng":35.1526152,"name":"Narok County, KE (-1.379, 35.153)","locId":"L52493361","dates":["2025-09-06"]},{"lat":12.7882451,"lng":74.4636055,"name":"Mangalore Pelagic Off Shore","locId":"L38059519","dates":["2024-11-16"]},{"lat":12.8006018,"lng":74.7602045,"name":"Mangalore Pelagic Off Shore (12.801, 74.76)","locId":"L38088242","dates":["2024-11-17"]},{"lat":12.8287392,"lng":74.790631,"name":"Mangalore Pelagic Off Shore (12.829, 74.791)","locId":"L38059492","dates":["2024-11-16"]},{"lat":12.9043897,"lng":74.6796292,"name":"Mangalore Pelagic Off Shore (12.904, 74.68)","locId":"L38088365","dates":["2024-11-17"]},{"lat":13.0024169,"lng":74.5605279,"name":"Mangalore Pelagic Off Shore (13.002, 74.561)","locId":"L38059540","dates":["2024-11-16"]},{"lat":12.7992426,"lng":74.697728,"name":"Mangalore Pelagic Off Shore (12.799, 74.698)","locId":"L38059507","dates":["2024-11-16"]},{"lat":12.8541783,"lng":74.8309335,"name":"Mangalore Pelagic Off Shore (12.854, 74.831)","locId":"L38088228","dates":["2024-11-17"]},{"lat":12.8820439,"lng":74.5537438,"name":"Mangalore Pelagic Off Shore (12.882, 74.554)","locId":"L38088350","dates":["2024-11-17"]},{"lat":12.9083701,"lng":74.6459719,"name":"Mangalore Pelagic Off Shore (12.908, 74.646)","locId":"L38059588","dates":["2024-11-16"]},{"lat":12.9,"lng":74.5,"name":"Pelagic HotSpot, Mangalore, In: 12.9-74.5","locId":"L3267398","dates":["2024-11-17"]},{"lat":13.0140105,"lng":74.5789874,"name":"Mangalore Pelagic Off Shore (13.014, 74.579)","locId":"L38059476","dates":["2024-11-16"]},{"lat":12.8753665,"lng":74.7211005,"name":"Mangalore Pelagic Off Shore (12.875, 74.721)","locId":"L38060071","dates":["2024-11-16"]},{"lat":31.7240697,"lng":-116.7228216,"name":"La Bufadora (acceso restringido)","locId":"L234681","dates":["2024-10-19"]},{"lat":32.8755865,"lng":-117.2106671,"name":"Executive Dr. (La Jolla)","locId":"L2592778","dates":["2023-05-08"]},{"lat":13.3481273,"lng":93.6723758,"name":"Andaman Sea IN (13.348, 93.672)","locId":"L60573523","dates":["2026-03-20"]},{"lat":13.4139437,"lng":94.0738126,"name":"Andaman Sea IN (13.414, 94.074)","locId":"L60573577","dates":["2026-03-20"]},{"lat":12.5866343,"lng":93.0093008,"name":"Andaman Sea IN (12.587, 93.009)","locId":"L60509054","dates":["2026-03-19"]},{"lat":12.8137716,"lng":92.9871292,"name":"Andaman Sea IN (12.814, 92.987)","locId":"L60514549","dates":["2026-03-19"]},{"lat":12.39206,"lng":92.9051323,"name":"Kadamtala, Andaman and Nicobar Islands, IN (12.392, 92.905)","locId":"L60641440","dates":["2026-03-21"]},{"lat":11.891821,"lng":92.822224,"name":"Auto selected 11.89182, 92.82222","locId":"L60650074","dates":["2026-03-21"]},{"lat":12.8555284,"lng":74.7845498,"name":"Mangalore Pelagic Off Shore (12.856, 74.785)","locId":"L38060493","dates":["2024-11-16"]},{"lat":12.9384032,"lng":74.5259113,"name":"Mangalore Pelagic Off Shore (12.938, 74.526)","locId":"L38059528","dates":["2024-11-16"]},{"lat":12.4249565,"lng":76.6570294,"name":"Ranganathittu Bird Sanctuary ರಂಗನತಿಟ್ಟು ಪಕ್ಷಿಧಾಮ","locId":"L2579365","dates":["2021-08-03"]},{"lat":-1.4412432,"lng":35.2150132,"name":"Talek (Town)","locId":"L43990890","dates":["2025-09-09"]},{"lat":16.5359176,"lng":78.660779,"name":"Dindi Reservoir","locId":"L4134292","dates":["2022-01-02"]},{"lat":15.4285347,"lng":74.1946834,"name":"Bolkarne","locId":"L5389321","dates":["2023-10-06"]},{"lat":28.15046,"lng":95.69129,"name":"Dambuk Grassland","locId":"L17751661","dates":["2022-03-27"]},{"lat":12.861773,"lng":74.832911,"name":"Old Port Road, Bunder","locId":"L5735065","dates":["2024-11-16"]},{"lat":12.7838445,"lng":74.5885486,"name":"Mangalore Pelagic Off Shore (12.784, 74.589)","locId":"L38088260","dates":["2024-11-17"]},{"lat":17.2010002,"lng":77.1577598,"name":"Malkhed J, Karnataka, IN (17.201, 77.158)","locId":"L21253593","dates":["2022-10-16"]},{"lat":27.5690273,"lng":95.8761012,"name":"New Mohong - Manpangleng Road, Namsai, Arunachal Pradesh, IN (27.569, 95.876)","locId":"L22134578","dates":["2023-01-09"]},{"lat":-1.4861431,"lng":35.2594269,"name":"Narok County, KE (-1.486, 35.259)","locId":"L52462044","dates":["2025-09-05"]},{"lat":26.8685117,"lng":88.3542934,"name":"Gitingy Tea Garden, West Bengal, IN","locId":"L26309684","dates":["2023-07-31"]},{"lat":12.2816942,"lng":76.7287826,"name":"Chikkalli Village Limits","locId":"L22559807","dates":["2023-02-12"]},{"lat":27.2608733,"lng":88.6153217,"name":"Unnamed Road, East Sikkim, Sikkim, IN (27.261, 88.615)","locId":"L28422196","dates":["2023-12-25"]},{"lat":27.1023799,"lng":88.6762708,"name":"Kolakham Village KP","locId":"L3513614","dates":["2023-12-28"]},{"lat":27.16965,"lng":92.45806,"name":"Singchung Bugun Village Community Reserve (SBVCR)","locId":"L6942046","dates":["2024-04-07"]},{"lat":28.2207717,"lng":95.8006215,"name":"Mishmi Hills--Roing-Hunli Road (Forest Gate)","locId":"L22999596","dates":["2022-03-28"]},{"lat":12.8711736,"lng":74.7553242,"name":"Mangalore Pelagic Off Shore (12.871, 74.755)","locId":"L38088379","dates":["2024-11-17"]},{"lat":11.6227992,"lng":92.7121824,"name":"Bathubasti","locId":"L13268177","dates":["2021-12-18"]},{"lat":10.1214917,"lng":76.7927784,"name":"Kuttampuzha-Mamalakkandam RD","locId":"L26451907","dates":["2024-07-05"]},{"lat":27.2395902,"lng":88.4871817,"name":"Singtam - Dikchu Road, South Sikkim, Sikkim, IN (27.24, 88.487)","locId":"L38892163","dates":["2024-12-27"]},{"lat":27.3480178,"lng":95.4764341,"name":"Lakhipathar Block, Assam, IN (27.348, 95.476)","locId":"L18253113","dates":["2022-03-26"]},{"lat":28.2414436,"lng":95.866419,"name":"Mishmi Hills--Chikopani Bridge","locId":"L12908549","dates":["2023-04-21"]},{"lat":11.5279455,"lng":76.6425546,"name":"Auto selected","locId":"L21876073","dates":["2022-12-22"]},{"lat":11.5279503,"lng":76.6425313,"name":"Sholur, Tamil Nadu, IN (11.528, 76.643)","locId":"L17940204","dates":["2022-02-27"]},{"lat":26.834365,"lng":88.3303267,"name":"Hill Cart Road, Selim Hill Tea Garden, West Bengal, IN (26.834, 88.33)","locId":"L28506022","dates":["2023-12-30"]},{"lat":11.5304357,"lng":76.6470784,"name":"Masinagudi--Jungle Hut (Restricted Access)","locId":"L4127761","dates":["2022-02-27"]},{"lat":11.5374689,"lng":76.6437161,"name":"Unnamed Road, Sholur, Tamil Nadu, IN (11.537, 76.644)","locId":"L17940939","dates":["2022-02-27"]},{"lat":-1.3375069,"lng":36.6231823,"name":"Aloha Gardens","locId":"L21183828","dates":["2025-09-05"]},{"lat":23.3312392,"lng":69.8699756,"name":"Nadapa Road, Nadapa, Gujarat, IN (23.331, 69.87)","locId":"L36555278","dates":["2024-09-14"]},{"lat":27.0973311,"lng":88.6525944,"name":"Lava- Rishop Forest Road","locId":"L9926471","dates":["2023-12-29"]},{"lat":27.096325,"lng":88.6394517,"name":"Rishi Road, Khampong Forest, West Bengal, IN (27.096, 88.639)","locId":"L8954130","dates":["2023-12-27"]},{"lat":27.1571114,"lng":92.4611092,"name":"Eaglenest WLS & Surroundings--Lama Camp","locId":"L3774779","dates":["2024-04-06"]},{"lat":18.2762774,"lng":74.0610945,"name":"Saswad-Veer-Lonand Road, Pune, Maharashtra, IN (18.276, 74.061)","locId":"L26889349","dates":["2023-09-02"]},{"lat":31.9207322,"lng":-116.7269468,"name":"Arroyo San Miguel","locId":"L6981707","dates":["2024-10-19"]},{"lat":27.3159742,"lng":88.6048846,"name":"Namgyal Institute of Tibetology and Surroundings","locId":"L38925437","dates":["2024-12-24"]},{"lat":28.1682176,"lng":95.8326746,"name":"National Highway 313, Arunachal Pradesh, IN (28.168, 95.833)","locId":"L14306674","dates":["2022-03-27"]},{"lat":27.2063433,"lng":92.5613013,"name":"Nag Mandir (27.206, 92.561)","locId":"L30339083","dates":["2024-04-05"]},{"lat":18.8932799,"lng":73.1133847,"name":"Karnala Bird Sanctuary","locId":"L961164","dates":["2025-07-30"]},{"lat":11.3884522,"lng":76.681931,"name":"Cairn Hill, Ooty","locId":"L2794877","dates":["2022-12-24"]},{"lat":22.8281599,"lng":72.057563,"name":"Nal Sarovar Chowkdi, Kitli","locId":"L22655623","dates":["2024-03-23"]},{"lat":42.3870571,"lng":-71.2543917,"name":"Prospect Hill Park, Waltham","locId":"L3926887","dates":["2024-10-24"]},{"lat":26.9979217,"lng":88.2702309,"name":"Tiger Hill -- Parrotbill Point","locId":"L20327740","dates":["2024-07-26"]},{"lat":27.3366204,"lng":88.402024,"name":"Bhaleydhunga - Maenam Wildlife Trail (Near Ropeway station atop)","locId":"L38890800","dates":["2024-12-27"]},{"lat":26.8171885,"lng":88.3467849,"name":"Hill Cart Road, Cart Road, West Bengal Neat SUKNA","locId":"L35109434","dates":["2024-07-25"]},{"lat":26.434095,"lng":92.0214967,"name":"Mangaldai Bus Stand","locId":"L5561095","dates":["2024-04-05"]},{"lat":28.1369267,"lng":95.8429975,"name":"Roing, Arunachal Pradesh, IN (28.137, 95.843)","locId":"L18474904","dates":["2023-04-18"]},{"lat":12.2256923,"lng":76.6560685,"name":"Mysuru Airport","locId":"L26223932","dates":["2025-04-15"]},{"lat":32.8720263,"lng":-117.2135082,"name":"4305 La Jolla Village Drive, San Diego, California, US (32.872, -117.214)","locId":"L24232378","dates":["2023-05-11"]},{"lat":33.7414682,"lng":77.7571861,"name":"Miru","locId":"L16788311","dates":["2022-08-26"]},{"lat":27.5727402,"lng":95.3662956,"name":"Gelapukhuri Road, Erasuti N.C., Assam, IN","locId":"L57547342","dates":["2026-01-23"]},{"lat":27.1068777,"lng":92.5251791,"name":"Sessa Orchid WLS","locId":"L5943614","dates":["2024-04-05"]},{"lat":26.9980157,"lng":88.271814,"name":"Senchal Road, Senchal Forest, West Bengal, IN","locId":"L26289084","dates":["2023-07-30"]},{"lat":26.9611181,"lng":76.7065435,"name":"12 Agra - Jaipur Road, Kherla, Rajasthan, IN (26.961, 76.707)","locId":"L29467703","dates":["2024-02-24"]},{"lat":26.3614627,"lng":91.8714496,"name":"Guwahati - Mangaldoi Road, Badiasisa, Assam","locId":"L30525818","dates":["2024-04-11"]},{"lat":27.2743259,"lng":88.6276029,"name":"Unnamed Road, East Sikkim, Sikkim, IN (27.274, 88.628)","locId":"L28422315","dates":["2023-12-25"]},{"lat":27.3241787,"lng":88.5938641,"name":"Near Queens Pod Restaurant, National Highway 10, Gangtok","locId":"L38811239","dates":["2024-12-24"]},{"lat":27.4891365,"lng":89.3579864,"name":"Hike to Tiger's Nest Monastery","locId":"L2188547","dates":["2007-05-25"]},{"lat":17.4328132,"lng":78.3814207,"name":"Knowledge City Madhapur","locId":"L27268545","dates":["2023-09-27"]},{"lat":17.8188966,"lng":76.9544439,"name":"Humnabad - Basavakalyan Road, Kouiyal, Karnataka, IN (17.819, 76.954)","locId":"L26870130","dates":["2023-09-01"]},{"lat":33.2691205,"lng":78.4687972,"name":"Mahe Bridge","locId":"L3819753","dates":["2022-08-25"]}]